City_ID,City,Lat,Lng,Max Temp,Humidity,Cloudiness,Wind Speed,Country,Date
0,airai,-8.9266,125.4092,295.4,73,20,1.08,TL,1681442249
1,coruripe,-10.1256,-36.1756,297.13,75,81,2.31,BR,1681442708
2,cayenne,4.9333,-52.3333,297.17,94,75,1.03,GF,1681442082
3,victoria,22.2855,114.1577,300.18,82,100,4.47,HK,1681442187
4,chuy,-33.6971,-53.4616,285.56,71,4,3.11,UY,1681442254
5,butaritari,3.0707,172.7902,300.57,78,63,4.48,KI,1681442240
6,hermanus,-34.4187,19.2345,288.65,70,44,4.53,ZA,1681442250
7,klaksvik,62.2266,-6.589,279.66,90,100,5.45,FO,1681442239
8,orbe,46.725,6.5307,278.35,82,88,0.41,CH,1681442837
9,sao filipe,14.8961,-24.4956,296.15,80,55,0.16,CV,1681442241
10,kavieng,-2.5744,150.7967,301.72,78,45,7.22,PG,1681442388
11,avarua,-21.2078,-159.775,300.18,61,20,3.09,CK,1681442248
12,upernavik,72.7868,-56.1549,261.84,93,100,2.39,GL,1681442280
13,port hedland,-20.3167,118.5667,306.18,46,40,7.2,AU,1681442240
14,bredasdorp,-34.5322,20.0403,286.53,67,47,3.32,ZA,1681441971
15,hilo,19.7297,-155.09,298.0,73,0,2.06,US,1681442841
16,mataura,-46.1927,168.8643,290.82,59,0,3.54,NZ,1681442004
17,rikitea,-23.1203,-134.9692,296.45,86,100,11.08,PF,1681442842
18,togitsu,32.8333,129.85,289.14,77,75,6.17,JP,1681442842
19,new norfolk,-42.7826,147.0587,289.22,44,0,2.22,AU,1681442247
20,vila franca do campo,37.7167,-25.4333,289.38,91,75,3.38,PT,1681442251
21,albany,42.6001,-73.9662,293.34,62,7,2.04,US,1681442843
22,punta arenas,-53.15,-70.9167,274.21,93,0,3.09,CL,1681442844
23,dikson,73.5069,80.5464,250.07,100,100,3.61,RU,1681442845
24,porbandar,21.6422,69.6093,300.43,64,0,5.03,IN,1681442846
25,geraldton,-28.7667,114.6,291.38,55,75,11.83,AU,1681442253
26,nikolskoye,59.7035,30.7861,274.09,81,97,4.16,RU,1681442847
27,yar-sale,66.8333,70.8333,251.99,82,3,3.5,RU,1681442277
28,kodiak,57.79,-152.4072,274.88,87,100,2.57,US,1681442032
29,sydney,-33.8679,151.2073,295.8,82,75,7.72,AU,1681442462
30,lebu,-37.6167,-73.65,286.08,95,90,0.2,CL,1681442849
31,tuktoyaktuk,69.4541,-133.0374,253.15,77,20,2.06,CA,1681442850
32,ushuaia,-54.8,-68.3,274.96,87,0,3.6,AR,1681442850
33,provideniya,64.3833,-173.3,263.35,48,0,3.13,RU,1681442851
34,busselton,-33.65,115.3333,290.28,38,62,9.45,AU,1681442851
35,hobart,-42.8794,147.3294,289.41,69,75,2.57,AU,1681442569
36,san cristobal,7.7669,-72.225,296.25,75,100,0.59,VE,1681442346
37,lasa,46.6166,10.7002,276.5,94,100,3.56,IT,1681442276
38,fereydun kenar,36.6864,52.5225,287.64,80,0,3.99,IR,1681442854
39,lorengau,-2.0226,147.2712,302.66,73,21,6.93,PG,1681442466
40,chokurdakh,70.6333,147.9167,263.0,85,98,3.42,RU,1681442286
41,kahului,20.8947,-156.47,301.16,62,20,6.17,US,1681442046
42,te anau,-45.4167,167.7167,289.56,61,8,0.92,NZ,1681442259
43,puerto ayora,-0.7393,-90.3518,300.68,91,99,4.47,EC,1681442856
44,atuona,-9.8,-139.0333,299.89,69,88,1.65,PF,1681442856
45,fairbanks,64.8378,-147.7164,270.71,55,40,5.14,US,1681442297
46,port lincoln,-34.7333,135.8667,296.72,42,100,7.67,AU,1681442857
47,beringovskiy,63.05,179.3167,260.64,76,98,4.58,RU,1681442857
48,port alfred,-33.5906,26.891,290.17,69,1,11.11,ZA,1681442295
49,manacapuru,-3.2997,-60.6206,298.03,91,34,1.43,BR,1681442075
50,sambava,-14.2667,50.1667,296.27,91,11,1.77,MG,1681442042
51,kapaa,22.0752,-159.319,300.14,79,100,9.26,US,1681442859
52,high level,58.5169,-117.136,280.21,42,20,1.54,CA,1681442860
53,carnarvon,-24.8667,113.6333,294.25,53,87,12.53,AU,1681442860
54,faanui,-16.4833,-151.75,300.63,70,3,2.71,PF,1681442268
55,akyab,20.15,92.9,302.68,61,77,1.07,MM,1681442861
56,andenes,69.3143,16.1194,276.44,75,0,6.17,NO,1681442862
57,lavrentiya,65.5833,-171.0,258.96,77,10,4.1,RU,1681442309
58,corrales,35.2378,-106.6067,293.53,18,100,3.13,US,1681442862
59,port hardy,50.6996,-127.4199,279.25,93,75,3.6,CA,1681442126
60,sao gabriel da cachoeira,-0.1303,-67.0892,296.27,96,96,0.34,BR,1681442281
61,norman wells,65.282,-126.8329,263.17,85,100,4.63,CA,1681442282
62,sarkikaraagac,38.0794,31.3664,278.18,72,0,1.08,TR,1681442864
63,petropavlovsk-kamchatskiy,53.0452,158.6483,276.48,75,75,3.0,RU,1681442612
64,hauterive,46.0901,3.4459,280.57,92,98,1.67,FR,1681442865
65,perevolotskiy,51.8763,54.1938,283.4,78,100,10.7,RU,1681442806
66,jamestown,42.097,-79.2353,290.95,59,0,2.57,US,1681442866
67,vaini,-21.2,-175.2,303.24,70,20,6.17,TO,1681442866
68,merke,42.8728,73.1786,294.37,41,97,2.69,KZ,1681442867
69,zhanaozen,43.3,52.8,284.22,77,84,6.71,KZ,1681442868
70,onalaska,43.8844,-91.2351,296.07,36,0,4.63,US,1681442868
71,georgetown,5.4112,100.3354,306.11,70,20,3.6,MY,1681442611
72,mar del plata,-38.0023,-57.5575,285.34,60,75,1.54,AR,1681442869
73,ostrovnoy,68.0531,39.5131,264.98,80,14,9.61,RU,1681442870
74,whitehorse,60.7161,-135.0538,275.58,55,75,2.57,CA,1681442870
75,nisia floresta,-6.0911,-35.2086,298.36,87,82,2.72,BR,1681442871
76,barrow,71.2906,-156.7887,256.16,71,0,4.63,US,1681442871
77,baglung,28.2719,83.5898,301.15,18,79,0.56,NP,1681442872
78,east london,-33.0153,27.9116,288.67,67,0,3.09,ZA,1681442661
79,bandarbeyla,9.4942,50.8122,301.16,77,40,3.34,SO,1681442313
80,talnakh,69.4865,88.3972,248.26,84,95,2.56,RU,1681442873
81,coihaique,-45.5752,-72.0662,276.12,70,0,2.57,CL,1681442238
82,lobez,53.6392,15.6213,280.2,90,100,2.77,PL,1681442874
83,port elizabeth,-33.918,25.5701,291.31,79,20,11.83,ZA,1681442874
84,spirit river,55.7833,-118.8361,278.39,55,95,2.29,CA,1681442874
85,la tuque,47.4334,-72.7824,282.29,57,85,2.57,CA,1681442817
86,touros,-5.1989,-35.4608,297.8,90,83,3.8,BR,1681442373
87,robertsport,6.7533,-11.3686,299.88,88,100,2.7,LR,1681442338
88,metro,-5.1131,105.3067,302.37,67,100,2.11,ID,1681442880
89,arandis,-22.4167,14.9667,289.55,37,0,1.45,NA,1681442881
90,qaanaaq,77.484,-69.3632,257.77,75,3,2.68,GL,1681442883
91,ler,8.3018,30.1418,299.54,53,87,0.34,SS,1681442721
92,camacha,33.0833,-16.3333,288.83,59,75,3.09,PT,1681442357
93,esperance,-33.8667,121.9,287.8,64,69,14.05,AU,1681442885
94,lamu,-2.2717,40.902,299.27,84,98,2.55,KE,1681442885
95,luderitz,-26.6481,15.1594,289.28,70,62,8.56,NA,1681442396
96,granard,53.7667,-7.5,274.22,85,96,0.36,IE,1681442886
97,yulara,-25.2406,130.9889,304.04,40,100,10.65,AU,1681442317
98,fuling,29.7022,107.3919,293.07,92,97,0.4,CN,1681442887
99,sola,-13.8833,167.55,300.59,71,100,1.87,VU,1681442514
100,nanortalik,60.1432,-45.2371,274.13,78,100,2.45,GL,1681442301
101,kaeo,-35.1,173.7833,296.11,81,100,6.1,NZ,1681442490
102,khatanga,71.9667,102.5,253.11,82,52,7.84,RU,1681442890
103,nurota,40.5614,65.6886,301.03,16,100,7.98,UZ,1681442502
104,moron,-34.6534,-58.6198,287.58,59,67,3.17,AR,1681442891
105,saint george,37.1041,-113.5841,292.48,30,75,3.58,US,1681442343
106,suamico,44.6319,-88.0393,292.46,50,0,3.6,US,1681442892
107,asau,46.4333,26.4,275.66,82,7,1.06,RO,1681442892
108,bikin,46.8161,134.26,277.9,61,100,3.92,RU,1681442893
109,truth or consequences,33.1284,-107.2528,294.21,13,0,3.6,US,1681442880
110,beloha,-25.1667,45.05,292.55,97,6,2.64,MG,1681442339
111,kondinskoye,59.6481,67.41,261.57,69,26,4.12,RU,1681442350
112,cidreira,-30.1811,-50.2056,291.62,86,100,4.69,BR,1681442895
113,namatanai,-3.6667,152.4333,301.59,78,100,7.06,PG,1681442478
114,kadayanallur,9.0833,77.35,302.5,53,58,1.36,IN,1681442896
115,mgandu,-5.95,34.1333,288.28,98,96,2.08,TZ,1681442897
116,turochak,52.2576,87.1224,280.27,70,100,2.62,RU,1681442897
117,saskylakh,71.9167,114.0833,262.13,87,54,7.34,RU,1681442898
118,husavik,66.0449,-17.3389,275.33,94,98,1.21,IS,1681442514
119,bluff,-46.6,168.3333,289.24,70,0,5.66,NZ,1681442899
120,lompoc,34.6391,-120.4579,284.7,82,0,5.14,US,1681442900
121,iqaluit,63.7506,-68.5145,258.14,94,79,2.2,CA,1681442081
122,mbaiki,3.8678,17.9892,294.46,99,100,0.86,CF,1681442901
123,ponta do sol,32.6667,-17.1,290.93,72,79,3.82,PT,1681442902
124,nantucket,41.2835,-70.0995,288.23,74,0,7.2,US,1681442193
125,cherskiy,68.75,161.3,262.12,77,7,3.29,RU,1681442903
126,port-cartier,50.0334,-66.8654,277.97,96,100,1.79,CA,1681442824
127,cape town,-33.9258,18.4232,290.58,67,20,3.6,ZA,1681442701
128,iskateley,67.6803,53.1512,264.36,90,93,6.71,RU,1681442435
129,bonavista,48.6499,-53.1147,273.46,90,100,1.96,CA,1681442515
130,thinadhoo,0.5333,72.9333,301.55,72,72,2.71,MV,1681442907
131,teguldet,57.3064,88.1667,267.52,89,100,3.88,RU,1681442458
132,hualmay,-11.0964,-77.6139,297.65,76,98,4.46,PE,1681442908
133,teruel,40.6667,-0.6667,275.59,74,65,6.02,ES,1681442909
134,saldanha,-33.0117,17.9442,285.18,84,0,5.86,ZA,1681442911
135,butte,39.6499,-121.5677,288.16,43,0,0.0,US,1681442912
136,ribeira grande,38.5167,-28.7,290.25,93,96,8.05,PT,1681442912
137,dakar,14.6937,-17.4441,298.64,85,90,6.73,SN,1681442846
138,lima duarte,-21.8425,-43.7931,290.97,96,6,0.93,BR,1681442913
139,xining,36.6167,101.7667,281.33,43,49,2.42,CN,1681442914
140,tasiilaq,65.6145,-37.6368,273.24,89,66,2.28,GL,1681442324
141,kalmunai,7.4167,81.8167,301.79,75,10,0.52,LK,1681442385
142,ziro,27.6333,93.8333,289.56,48,1,0.11,IN,1681442916
143,rexburg,43.826,-111.7897,272.27,80,0,3.09,US,1681442728
144,merauke,-8.4667,140.3333,302.24,72,97,3.12,ID,1681442444
145,kichmengskiy gorodok,59.9816,45.7854,265.77,67,6,4.65,RU,1681442918
146,bilma,18.6853,12.9164,296.82,10,27,2.82,NE,1681442918
147,hasaki,35.7333,140.8333,297.16,68,87,10.31,JP,1681442337
148,college,64.8569,-147.8028,270.7,55,75,5.14,US,1681442323
149,alta floresta,-9.8756,-56.0861,295.04,97,100,0.65,BR,1681442817
150,havoysund,70.9963,24.6622,274.28,73,4,3.3,NO,1681442382
151,erzin,36.9559,36.2,284.19,82,12,1.53,TR,1681442921
152,shymkent,42.3,69.6,295.48,33,0,5.0,KZ,1681442921
153,codrington,-38.2667,141.9667,296.02,47,23,5.3,AU,1681442921
154,savannah bight,16.45,-85.85,300.29,83,99,8.26,HN,1681442922
155,neuquen,-38.9516,-68.0591,284.09,76,0,2.06,AR,1681442922
156,aberdeen,57.1437,-2.0981,277.42,100,100,0.51,GB,1681442657
157,sivas,39.7916,37.0019,274.5,93,75,3.6,TR,1681442380
158,san patricio,28.017,-97.5169,296.07,71,41,4.73,US,1681442923
159,bambanglipuro,-7.95,110.2833,300.46,77,100,2.91,ID,1681442789
160,dingle,10.9995,122.6711,305.18,55,39,2.44,PH,1681442824
161,normandin,48.8333,-72.5321,282.32,57,100,4.12,CA,1681442925
162,tura,25.5198,90.2201,305.77,21,76,2.17,IN,1681442486
163,ahipara,-35.1667,173.1667,294.9,70,100,5.12,NZ,1681442925
164,buala,-8.145,159.5921,301.36,80,95,2.89,SB,1681442780
165,aklavik,68.2191,-135.0107,255.76,88,100,3.99,CA,1681442927
166,anage,-14.6122,-41.1356,294.63,78,42,1.28,BR,1681442927
167,russell,32.3502,-85.1999,291.75,94,0,1.93,US,1681442436
168,castro,-24.7911,-50.0119,289.33,85,98,1.66,BR,1681442928
169,tilichiki,60.4667,166.1,262.34,73,7,3.55,RU,1681442928
170,arraial do cabo,-22.9661,-42.0278,297.0,91,9,3.92,BR,1681442929
171,thompson,55.7435,-97.8558,276.24,65,75,1.54,CA,1681442930
172,saint-michel-des-saints,46.6834,-73.9159,280.89,90,100,4.11,CA,1681442930
173,djambala,-2.5447,14.7533,293.73,89,70,0.69,CG,1681442931
174,nova aurora,-22.8667,-52.5667,294.77,91,100,0.61,BR,1681442931
175,sur,22.5667,59.5289,302.57,49,36,2.34,OM,1681442501
176,comodoro rivadavia,-45.8667,-67.5,273.07,80,0,3.09,AR,1681442813
177,necochea,-38.5473,-58.7368,285.25,57,98,2.75,AR,1681442932
178,kununurra,-15.7667,128.7333,303.14,70,75,1.03,AU,1681442391
179,cockburn town,21.4612,-71.1419,299.06,77,10,7.76,TC,1681442765
180,babino,56.2256,43.6238,272.14,46,0,7.15,RU,1681442934
181,pisco,-13.7,-76.2167,297.18,73,0,4.63,PE,1681442335
182,rio grande,-32.035,-52.0986,289.7,65,10,4.66,BR,1681442678
183,sarakhs,36.5449,61.1577,295.61,34,99,5.76,IR,1681442935
184,coos bay,43.3665,-124.2179,281.14,81,0,2.06,US,1681442449
185,chumikan,54.7183,135.315,271.57,83,100,2.15,RU,1681442782
186,saint-joseph,-21.3667,55.6167,297.86,83,99,0.28,RE,1681442378
187,martapura,-3.4167,114.85,304.2,70,40,1.54,ID,1681442937
188,severo-kurilsk,50.6789,156.125,274.46,95,67,5.01,RU,1681442937
189,arkul,57.2808,50.044,269.51,66,59,7.28,RU,1681442937
190,stephenville,32.2207,-98.2023,293.59,59,0,4.12,US,1681442938
191,novobiryusinskiy,56.9578,97.7076,277.24,74,95,4.99,RU,1681442939
192,mount gambier,-37.8333,140.7667,295.01,50,24,5.27,AU,1681442939
193,antigonish,45.6169,-61.9986,284.25,55,87,1.79,CA,1681442940
194,catamarca,-28.4696,-65.7852,289.59,98,97,1.34,AR,1681442940
195,komsomolskiy,40.4272,71.7189,293.55,52,8,1.03,UZ,1681442941
196,asfi,32.2994,-9.2372,286.54,70,1,7.93,MA,1681442941
197,singaraja,-8.112,115.0882,302.64,69,100,1.4,ID,1681442942
198,vila velha,-20.3297,-40.2925,298.12,95,20,3.09,BR,1681442502
199,kattivakkam,13.2167,80.3167,303.2,88,4,5.67,IN,1681442737
200,san quintin,30.4833,-115.95,286.14,65,38,5.88,MX,1681442944
201,jiangkou,25.4872,119.1986,296.85,75,30,3.32,CN,1681442946
202,vysokogornyy,50.1167,139.15,269.24,71,100,5.65,RU,1681442947
203,yuanping,38.7153,112.7575,288.31,14,100,4.62,CN,1681442948
204,natal,-5.795,-35.2094,298.27,88,40,1.54,BR,1681442927
205,mehamn,71.0357,27.8492,274.12,60,0,7.2,NO,1681442949
206,sorland,67.667,12.6934,278.07,72,11,10.52,NO,1681442546
207,maragogi,-9.0122,-35.2225,297.32,75,59,0.83,BR,1681442951
208,gat,31.61,34.7642,285.04,100,0,1.66,IL,1681442358
209,sitka,57.0531,-135.33,279.09,70,100,2.57,US,1681442952
210,birjand,32.8663,59.2211,290.41,34,0,2.06,IR,1681442953
211,saint-augustin,51.226,-58.6502,275.48,96,100,4.26,CA,1681442372
212,bisalpur,28.3,79.8,305.59,13,99,2.93,IN,1681442954
213,saint-philippe,-21.3585,55.7679,298.21,84,95,0.51,RE,1681442955
214,margate,51.3813,1.3862,278.54,84,85,0.89,GB,1681442745
215,albina,5.5,-54.05,296.72,95,74,0.94,SR,1681442957
216,hithadhoo,-0.6,73.0833,301.86,69,59,3.12,MV,1681442957
217,bonthe,7.5264,-12.505,298.9,85,62,2.13,SL,1681442799
218,ilulissat,69.2167,-51.1,269.16,100,100,1.54,GL,1681442959
219,longyearbyen,78.2186,15.6401,272.06,80,75,3.6,SJ,1681442960
220,yellowknife,62.456,-114.3525,269.44,74,75,5.14,CA,1681442961
221,msanga,-6.05,36.0333,291.59,97,99,1.75,TZ,1681442961
222,lagoa,39.05,-27.9833,289.11,84,66,4.59,PT,1681442962
223,bengkulu,-3.8004,102.2655,301.79,68,40,1.81,ID,1681442962
224,hofn,64.2539,-15.2082,278.11,74,99,5.07,IS,1681442761
225,tabuk,17.4189,121.4443,304.76,58,94,4.17,PH,1681442963
226,otane,-39.8833,176.6333,290.93,84,98,2.87,NZ,1681442964
227,sioux lookout,50.1001,-91.917,276.19,93,100,3.6,CA,1681442378
228,flinders,-34.5833,150.8552,293.81,79,45,1.34,AU,1681442965
229,salinopolis,-0.6136,-47.3561,299.37,86,71,3.41,BR,1681442920
230,nukus,42.4531,59.6103,291.14,55,0,3.09,UZ,1681442966
231,port macquarie,-31.4333,152.9167,298.09,64,14,6.17,AU,1681442433
232,gararu,-9.9675,-37.0833,295.36,87,65,1.56,BR,1681442967
233,aden,12.7794,45.0367,300.97,82,10,8.6,YE,1681442420
234,huangmei,30.1924,116.025,298.42,70,81,1.87,CN,1681442968
235,moose factory,51.2585,-80.6094,272.15,80,100,3.09,CA,1681442968
236,ketchikan,55.3422,-131.6461,279.41,81,100,0.0,US,1681442969
237,inongo,-1.95,18.2667,296.06,89,43,1.37,CD,1681442969
238,ambulu,-8.345,113.6058,300.78,81,100,2.61,ID,1681442381
239,ravar,31.2656,56.8055,294.39,37,65,6.14,IR,1681442971
240,kyra,49.5776,111.9753,273.88,41,100,2.71,RU,1681442972
241,clyde river,70.4692,-68.5914,256.28,71,0,6.69,CA,1681442972
242,ambon,-3.6954,128.1814,305.23,70,40,2.57,ID,1681442973
243,mahebourg,-20.4081,57.7,298.29,83,20,1.54,MU,1681442974
244,katsuura,35.1333,140.3,291.53,71,100,8.41,JP,1681442974
245,torva,58.0028,25.935,280.34,78,100,4.52,EE,1681442975
246,tiksi,71.6872,128.8694,266.86,81,100,1.67,RU,1681442975
247,mareeba,-17.0,145.4333,306.73,51,84,2.28,AU,1681442976
248,antofagasta,-23.65,-70.4,290.75,83,47,2.55,CL,1681442432
249,oistins,13.0667,-59.5333,299.2,73,40,6.17,BB,1681442977
250,vao,-22.6667,167.4833,296.99,90,100,6.53,NC,1681442755
251,tagusao,9.1924,117.8141,302.6,65,89,1.91,PH,1681442978
252,meadow lake,34.8014,-106.5436,292.66,17,84,8.37,US,1681442978
253,keti bandar,24.1447,67.4497,299.89,73,0,5.9,PK,1681442978
254,fiumicino,41.7675,12.2291,285.21,76,20,3.09,IT,1681442816
255,magdagachi,53.45,125.8,276.71,55,91,3.09,RU,1681442979
256,pangai,-19.8,-174.35,302.21,70,20,6.17,TO,1681442980
257,torbay,47.6666,-52.7314,273.8,93,40,4.63,CA,1681442980
258,saint anthony,45.0205,-93.218,297.11,28,0,5.66,US,1681442441
259,alyangula,-13.8483,136.4192,302.59,70,65,3.24,AU,1681442706
260,ancud,-41.8697,-73.8203,282.69,80,100,1.7,CL,1681442982
261,mangrol,21.1167,70.1167,300.84,61,0,6.34,IN,1681442982
262,kaitangata,-46.2817,169.8464,289.22,70,48,6.19,NZ,1681442982
263,amapa,1.0,-52.0,295.93,99,100,0.57,BR,1681442455
264,bay roberts,47.5999,-53.2648,274.22,94,100,0.45,CA,1681442756
265,dudinka,69.4058,86.1778,248.49,96,38,3.53,RU,1681442984
266,lieksa,63.3167,30.0167,265.01,90,13,3.56,FI,1681442984
267,canoa,18.355,-71.1585,298.07,82,55,2.04,DO,1681442985
268,egvekinot,66.3167,-179.1667,257.04,75,3,3.35,RU,1681442549
269,talaya,61.3833,152.75,262.97,70,43,1.36,RU,1681442986
270,pevek,69.7008,170.3133,257.53,86,99,1.5,RU,1681442986
271,broome,42.2506,-75.833,292.03,65,26,1.01,US,1681442987
272,shimoda,34.6667,138.95,293.35,52,100,5.41,JP,1681442987
273,shiraz,29.6036,52.5388,287.84,63,20,0.0,IR,1681442987
274,yumen,40.2833,97.2,286.09,23,41,9.2,CN,1681442988
275,daru,-9.0763,143.2092,302.62,66,98,2.21,PG,1681442553
276,jaumave,23.4167,-99.3833,292.9,91,34,1.69,MX,1681442989
277,olafsvik,64.8945,-23.7142,277.41,71,96,2.88,IS,1681442989
278,sangar,63.9242,127.4739,271.8,90,90,3.43,RU,1681442989
279,acarau,-2.8856,-40.12,298.25,86,98,4.42,BR,1681442990
280,pangody,65.85,74.4859,255.72,93,80,7.24,RU,1681442498
281,hambantota,6.1241,81.1185,302.34,94,20,1.03,LK,1681442991
282,kovur,14.4833,79.9833,305.68,32,63,5.09,IN,1681442991
283,nioro,13.35,-15.75,300.87,41,73,3.51,GM,1681442991
284,valdivia,-39.8142,-73.2459,282.2,79,93,0.51,CL,1681442847
285,pacific grove,36.6177,-121.9166,285.76,79,40,7.15,US,1681442520
286,yaan,7.3833,8.5667,300.34,72,9,3.73,NG,1681442993
287,ozernovskiy,51.5,156.5167,274.98,94,98,6.35,RU,1681442993
288,sept-iles,50.2001,-66.3821,278.15,57,100,2.06,CA,1681442993
289,tieling,42.2931,123.8414,291.13,12,23,2.38,CN,1681442994
290,havelock,34.8791,-76.9013,294.14,90,0,1.54,US,1681442994
291,guerrero negro,27.9769,-114.0611,287.29,72,0,6.8,MX,1681442995
292,cabanas,22.9758,-82.9219,297.01,79,12,1.19,CU,1681442995
293,korla,41.7597,86.1469,287.51,28,66,3.46,CN,1681442526
294,okitipupa,6.5047,4.7839,298.1,95,92,1.11,NG,1681442996
295,omboue,-1.5746,9.2618,298.24,92,100,1.97,GA,1681442997
296,anchorage,61.2181,-149.9003,276.0,80,100,4.63,US,1681442700
297,ternate,0.8,127.4,302.77,70,12,2.22,ID,1681442701
298,opuwo,-18.0607,13.84,292.69,37,24,2.07,NA,1681442998
299,kyabe,9.4515,18.9449,299.91,58,73,1.99,TD,1681442999
300,miri,4.4148,114.0089,304.23,70,40,3.09,MY,1681442999
301,itiuba,-10.6917,-39.8536,296.3,82,97,2.12,BR,1681443000
302,avera,33.194,-82.5271,291.14,96,97,4.35,US,1681443000
303,harper,4.375,-7.7169,299.82,86,80,1.6,LR,1681443001
304,bubaque,11.2833,-15.8333,298.21,75,75,6.02,GW,1681443005
305,rio gallegos,-51.6226,-69.2181,278.18,87,0,7.72,AR,1681443007
306,puerto escondido,15.85,-97.0667,301.61,69,0,2.57,MX,1681442484
307,suez,29.9737,32.5263,288.97,68,41,1.35,EG,1681443008
308,isangel,-19.55,169.2667,301.49,75,100,4.31,VU,1681442775
309,rivera,-30.9053,-55.5508,283.71,65,0,2.97,UY,1681443011
310,ocos,14.5094,-92.1933,299.25,66,100,2.65,GT,1681443011
311,launceston,-41.45,147.1667,291.01,55,100,1.54,AU,1681442562
312,san policarpo,12.1791,125.5072,302.22,70,46,4.67,PH,1681443012
313,sayan,-11.1361,-77.1933,295.5,83,98,1.09,PE,1681443013
314,chapais,49.7834,-74.8492,275.03,92,100,3.98,CA,1681443014
315,nemuro,43.3236,145.575,279.78,77,11,5.01,JP,1681443015
316,miram shah,33.0086,70.0697,300.02,21,0,1.09,PK,1681443015
317,vredendal,-31.6683,18.5012,287.3,80,0,3.5,ZA,1681443016
318,bogorodskoye,56.55,37.8833,271.97,60,29,6.53,RU,1681443016
319,palmer,42.1584,-72.3287,295.19,60,0,1.54,US,1681443017
320,ukhta,63.5671,53.6835,262.81,86,24,2.37,RU,1681443018
321,kamina,-8.7386,24.9906,290.0,96,100,1.47,CD,1681443018
322,bulawayo,-20.15,28.5833,287.05,36,21,1.12,ZW,1681443019
323,semme,46.1963,1.5007,276.38,99,100,2.73,FR,1681443019
324,arman,59.7,150.1667,272.05,65,100,4.22,RU,1681443020
325,saky,45.1356,33.6031,283.4,85,100,4.47,UA,1681443021
326,kutum,14.2,24.6667,291.3,17,8,3.6,SD,1681443021
327,salalah,17.0151,54.0924,301.2,74,20,1.03,OM,1681443022
328,kamaishi,39.2667,141.8833,288.62,62,71,6.79,JP,1681443023
329,sainte-marie,-20.8968,55.5496,298.74,83,90,3.09,RE,1681443024
330,road town,18.4167,-64.6167,299.2,75,2,6.88,VG,1681442461
331,karratha,-20.7377,116.8463,305.2,32,89,8.61,AU,1681443025
332,kieta,-6.2167,155.6333,301.2,78,97,0.97,PG,1681443026
333,onega,63.9061,38.1404,265.26,85,23,2.15,RU,1681443028
334,pointe-noire,-4.7761,11.8635,298.19,94,20,1.03,CG,1681443028
335,abu samrah,35.3029,37.1841,283.18,88,0,3.88,SY,1681443029
336,oranjemund,-28.55,16.4333,287.65,93,100,4.05,NA,1681442474
337,kruisfontein,-34.0033,24.7314,288.64,78,52,12.43,ZA,1681443035
338,poum,-20.2333,164.0167,298.1,86,100,4.53,NC,1681442437
339,nishihara,26.1842,127.7558,298.75,87,100,5.66,JP,1681443038
340,stevens point,44.5236,-89.5746,293.34,40,4,2.68,US,1681442974
341,nouadhibou,20.931,-17.0347,293.14,88,0,4.12,MR,1681443038
342,ugoofaaru,5.6667,73.0,301.53,75,18,2.82,MV,1681443039
343,christchurch,-43.5333,172.6333,289.49,69,75,4.63,NZ,1681442905
344,beira,-19.8436,34.8389,296.2,100,20,2.06,MZ,1681443040
345,bahia honda,22.9036,-83.1592,296.68,80,9,0.83,CU,1681443040
346,hervey bay,-25.2986,152.8535,297.44,44,0,4.0,AU,1681443041
347,markova,48.6758,24.4138,277.61,80,23,1.68,UA,1681443042
348,basco,20.4487,121.9702,299.33,87,98,5.32,PH,1681442712
349,altamont,42.2068,-121.7372,280.06,24,100,5.66,US,1681442875
350,chojnow,51.2737,15.9366,279.86,93,100,2.84,PL,1681443043
351,linxia,35.6003,103.2064,282.73,53,69,3.13,CN,1681443043
352,darab,28.7519,54.5444,293.05,61,99,1.9,IR,1681443044
353,fortuna,40.5982,-124.1573,281.85,76,30,2.2,US,1681443044
354,san juan de los morros,9.9115,-67.3538,296.45,67,63,2.04,VE,1681443045
355,monaragala,6.8714,81.3487,305.02,51,19,1.89,LK,1681443045
356,tual,-5.6667,132.75,301.89,71,18,2.45,ID,1681443045
357,waingapu,-9.6567,120.2641,301.43,76,100,2.36,ID,1681442451
358,hirara,24.8,125.2833,299.3,89,75,5.66,JP,1681442930
359,vardo,70.3705,31.1107,270.14,68,48,4.63,NO,1681443047
360,mufulira,-12.5498,28.2407,288.39,98,73,1.85,ZM,1681442974
361,atambua,-9.1061,124.8925,301.38,67,12,1.82,ID,1681443048
362,wuwei,37.9281,102.6414,284.53,29,86,2.74,CN,1681443048
363,shingu,33.7333,135.9833,293.89,52,100,3.08,JP,1681443049
364,richards bay,-28.783,32.0377,294.12,84,89,2.45,ZA,1681443049
365,souillac,-20.5167,57.5167,296.36,83,20,1.54,MU,1681443049
366,tuatapere,-46.1333,167.6833,291.14,62,0,1.47,NZ,1681443050
367,peniche,39.3558,-9.3811,286.54,78,100,5.86,PT,1681443051
368,priladozhskiy,59.85,31.4833,271.78,99,90,4.85,RU,1681443051
369,dzaoudzi,-12.7887,45.2699,299.09,83,0,2.06,YT,1681443052
370,la ronge,55.1001,-105.2842,277.27,52,75,1.54,CA,1681442754
371,mlonggo,-6.5333,110.7,302.67,70,100,0.71,ID,1681443052
372,deputatskiy,69.3,139.9,263.06,84,100,1.32,RU,1681442566
373,northam,51.0333,-4.2167,280.59,93,100,2.97,GB,1681443053
374,ambanja,-13.6833,48.45,296.11,89,39,1.07,MG,1681443054
375,eusebio,-3.89,-38.4506,300.34,83,40,2.57,BR,1681443054
376,samana,19.2056,-69.3369,296.89,85,39,2.67,DO,1681443055
377,praia da vitoria,38.7333,-27.0667,290.29,88,75,6.49,PT,1681443056
378,coihueco,-36.6167,-71.8333,284.83,79,100,1.25,CL,1681443056
379,sao lourenco do sul,-31.3653,-51.9783,289.66,66,31,3.9,BR,1681443056
380,goundi,9.3627,17.366,300.71,61,84,2.93,TD,1681443057
381,funtua,11.5233,7.3081,295.58,18,70,4.07,NG,1681443057
382,srednekolymsk,67.45,153.6833,268.17,75,13,6.18,RU,1681443058
383,nome,64.5011,-165.4064,260.19,61,0,3.09,US,1681442565
384,los llanos de aridane,28.6585,-17.9182,290.44,63,100,7.15,ES,1681443059
385,elat,29.5581,34.9482,288.06,63,0,2.57,IL,1681443059
386,lampa,-33.2833,-70.9,289.27,72,0,3.6,CL,1681443060
387,mayumba,-3.432,10.6554,299.19,88,70,2.95,GA,1681443061
388,berlevag,70.8578,29.0864,274.15,64,43,6.69,NO,1681443061
389,muros,42.7762,-9.0603,286.53,94,100,7.72,ES,1681442720
390,rumonge,-3.9736,29.4386,294.41,87,100,0.89,BI,1681443062
391,changji,44.0167,87.3167,287.59,33,0,2.0,CN,1681443063
392,constitucion,-35.3333,-72.4167,285.64,93,100,2.74,CL,1681443064
393,iracoubo,5.4802,-53.2011,298.14,88,100,3.39,GF,1681443065
394,brae,60.3964,-1.353,278.95,87,78,5.4,GB,1681443065
395,banda aceh,5.5577,95.3222,303.18,69,31,3.96,ID,1681443066
396,saint-francois,46.4154,3.9054,278.84,81,100,1.54,FR,1681443067
397,mantua,45.1667,10.7833,281.68,88,99,1.34,IT,1681442769
398,padrauna,26.9025,83.9819,307.82,10,94,2.29,IN,1681443068
399,bereda,43.2686,-7.5406,282.12,100,100,3.65,ES,1681443069
400,nouakchott,18.0858,-15.9785,298.11,71,66,5.53,MR,1681443070
401,payo,-3.7508,103.6372,305.85,51,45,1.26,ID,1681443071
402,nuuk,64.1835,-51.7216,276.49,60,20,3.09,GL,1681443071
403,trzebinia,50.1593,19.4697,281.11,92,74,2.23,PL,1681443072
404,hamilton,39.1834,-84.5333,292.62,55,0,0.0,US,1681443028
405,mwense,-10.3845,28.698,290.31,98,87,1.09,ZM,1681443073
406,eyl,7.9803,49.8164,301.59,69,98,5.14,SO,1681443074
407,bembereke,10.2283,2.6634,298.71,59,49,2.2,BJ,1681443074
408,pachelma,53.2443,43.3521,276.21,71,100,11.85,RU,1681443075
409,usakos,-22.0,15.6,292.21,25,2,1.74,NA,1681443076
410,roscommon,53.6333,-8.1833,275.99,83,100,0.21,IE,1681443077
411,bibiani,6.4635,-2.3194,295.32,97,99,0.13,GH,1681443077
412,aripuana,-9.1667,-60.6333,295.93,99,100,0.56,BR,1681443078
413,sao joao da barra,-21.6403,-41.0511,297.44,91,13,2.97,BR,1681443078
414,iranshahr,27.2025,60.6848,300.34,41,0,0.0,IR,1681443079
415,iberia,29.9502,-91.7507,289.85,77,0,2.06,US,1681443080
416,vetluzhskiy,58.3902,45.4654,268.59,51,5,5.75,RU,1681443080
417,batesville,35.7698,-91.641,293.12,46,100,0.0,US,1681442921
418,yasnyy,51.0333,59.8742,279.45,81,100,12.0,RU,1681443082
419,konevo,62.1215,39.3192,265.36,85,14,2.88,RU,1681443082
420,narsaq,60.9167,-46.05,280.27,72,100,2.94,GL,1681443083
421,serebryansk,49.6925,83.2892,275.89,85,99,3.06,KZ,1681443084
422,kudahuvadhoo,2.6708,72.8944,301.56,70,16,0.96,MV,1681443084
423,harnoli,32.2792,71.5539,305.3,18,0,3.44,PK,1681443085
424,flin flon,54.7682,-101.865,272.96,97,100,1.65,CA,1681443032
425,koforidua,6.0941,-0.2591,297.34,95,18,1.16,GH,1681443087
426,mancio lima,-7.6142,-72.8958,296.35,97,100,0.77,BR,1681443087
427,cangucu,-31.395,-52.6756,282.95,88,1,1.57,BR,1681443088
428,axim,4.8699,-2.2405,299.37,87,90,2.42,GH,1681443088
429,atasu,48.6814,71.6433,287.65,36,100,6.38,KZ,1681443089
430,tandil,-37.3217,-59.1332,279.17,72,51,2.86,AR,1681443002
431,monticello,45.3055,-93.7941,297.12,31,100,6.17,US,1681443019
432,saint-pierre,-21.3393,55.4781,298.47,78,20,3.6,RE,1681442543
433,coquimbo,-29.9533,-71.3436,287.0,94,0,1.54,CL,1681443093
434,sibu,2.3,111.8167,304.32,70,40,0.51,MY,1681443094
435,suna,57.8338,50.0588,268.48,59,42,9.14,RU,1681443094
436,ust-tsilma,65.441,52.1498,261.92,87,70,3.07,RU,1681443095
437,turan,16.0678,108.2208,302.14,79,75,2.57,VN,1681443095
438,alzamay,55.5562,98.6644,280.08,48,100,4.6,RU,1681443096
439,reconquista,-29.15,-59.65,288.59,68,69,4.24,AR,1681443014
440,maridi,4.9158,29.4742,292.45,92,96,1.52,SS,1681443096
441,mollendo,-17.0231,-72.0147,294.4,81,7,2.04,PE,1681443097
442,benguela,-12.5763,13.4055,298.29,88,98,0.62,AO,1681443097
443,valparaiso,-33.0393,-71.6273,290.37,62,0,1.03,CL,1681443098
444,abha,18.2164,42.5053,288.05,77,20,3.09,SA,1681443098
445,banfora,10.6333,-4.7667,302.24,29,40,1.56,BF,1681442574
446,sechura,-5.5569,-80.8222,301.39,68,100,4.29,PE,1681443099
447,mountain home,43.133,-115.6912,278.39,41,0,5.14,US,1681442968
448,simao,22.7886,100.9748,304.21,14,1,3.11,CN,1681443099
449,puerto colombia,10.9878,-74.9547,299.2,83,41,12.34,CO,1681442948
450,baykit,61.67,96.37,264.02,87,100,2.15,RU,1681443101
451,pangkalanbuun,-2.6833,111.6167,304.28,61,98,2.01,ID,1681442510
452,faya,18.3851,42.4509,288.21,68,1,2.04,SA,1681443101
453,wilmington island,32.0036,-80.9737,294.25,96,40,2.06,US,1681443102
454,honningsvag,70.9821,25.9704,274.01,69,13,10.29,NO,1681443102
455,ahuimanu,21.4447,-157.8378,300.99,73,75,8.23,US,1681443103
456,fort nelson,58.8053,-122.7002,278.92,49,75,0.0,CA,1681442563
457,kpandu,6.9954,0.2931,298.84,86,91,2.39,GH,1681443104
458,villacarrillo,38.1156,-3.0848,278.22,48,83,0.65,ES,1681443104
459,lagos,6.5833,3.75,301.33,90,86,2.02,NG,1681442429
460,quatre cocos,-20.2078,57.7625,298.2,80,0,0.19,MU,1681443105
461,port augusta,-32.5,137.7667,298.89,21,100,9.12,AU,1681442797
462,sfantu gheorghe,45.8667,25.7833,276.44,82,74,1.84,RO,1681443106
463,ahar,38.4774,47.0699,280.81,58,46,4.98,IR,1681443106
464,meulaboh,4.1363,96.1285,302.2,71,93,1.04,ID,1681443107
465,diplo,24.4667,69.584,304.12,38,0,6.51,PK,1681443107
466,ingraj bazar,25.0,88.15,309.35,13,96,1.73,IN,1681443108
467,urengoy,65.9667,78.3667,256.42,88,86,7.8,RU,1681443108
468,changli,39.7042,119.1506,293.07,17,66,1.36,CN,1681443108
469,preobrazheniye,42.9019,133.9064,282.88,42,51,2.02,RU,1681442978
470,pingzhuang,42.0372,119.2889,288.71,9,97,5.68,CN,1681443109
471,hobyo,5.3505,48.5268,301.35,75,100,4.28,SO,1681442787
472,saint peter,13.25,-59.6167,298.46,73,50,6.63,BB,1681443110
473,taft,31.7471,54.2088,288.12,39,20,0.0,IR,1681443110
474,keuruu,62.2667,24.7,271.37,94,61,4.59,FI,1681442953
475,caconda,-13.7333,15.0667,289.67,83,95,2.13,AO,1681443112
476,lazaro cardenas,17.9583,-102.2,297.4,71,0,2.09,MX,1681443112
477,griffith,41.5284,-87.4237,294.76,39,0,3.09,US,1681443112
478,boo,59.3333,18.2833,277.58,86,100,4.12,SE,1681443113
479,atar,20.5169,-13.0499,301.06,43,78,1.99,MR,1681443113
480,haines junction,60.7522,-137.5108,275.12,51,100,4.12,CA,1681443114
481,adre,13.4667,22.2,295.82,21,0,2.88,TD,1681443114
482,sao miguel do araguaia,-13.275,-50.1628,296.4,85,100,1.22,BR,1681443114
483,summerville,33.0185,-80.1757,294.14,96,100,2.57,US,1681442987
484,erenhot,43.6475,111.9767,277.28,16,0,12.81,CN,1681443115
485,iseyin,7.9667,3.6,298.09,87,9,2.11,NG,1681443116
486,sisimiut,66.9395,-53.6735,267.06,86,29,2.42,GL,1681443116
487,bagdarin,54.4333,113.6,274.74,39,12,1.32,RU,1681443116
488,cedar city,37.6775,-113.0619,278.69,49,100,4.63,US,1681443117
489,narasannapeta,18.4167,84.05,307.87,38,38,3.12,IN,1681443117
490,santa ana,33.7456,-117.8678,287.1,81,100,3.09,US,1681442968
491,leshukonskoye,64.8989,45.7622,258.96,94,37,1.34,RU,1681442569
492,pangnirtung,66.1451,-65.7125,258.36,90,73,2.74,CA,1681443119
493,tezu,27.9167,96.1667,307.16,22,1,2.15,IN,1681443119
494,gewane,10.1664,40.6453,297.43,71,36,3.03,ET,1681443120
495,kuusamo,65.9667,29.1833,262.17,79,0,3.09,FI,1681442978
496,starokostyantyniv,49.7576,27.2034,280.8,96,100,2.23,UA,1681443120
497,goderich,43.7501,-81.7165,292.33,45,82,6.17,CA,1681442494
498,whitecourt,54.1502,-115.6855,278.73,38,75,3.09,CA,1681443121
499,macau,22.2006,113.5461,301.96,88,40,2.06,MO,1681442913
500,sarangani,5.4033,125.4636,301.77,69,67,2.03,PH,1681443123
501,katobu,-4.9408,122.5276,303.96,66,71,1.46,ID,1681443123
502,acajutla,13.5928,-89.8275,300.75,73,78,3.33,SV,1681442881
503,alofi,-19.0595,-169.9187,302.09,61,75,7.2,NU,1681443124
504,panji,-7.7253,114.0995,303.45,65,100,0.21,ID,1681443125
505,makakilo city,21.3469,-158.0858,300.33,63,40,8.23,US,1681443125
506,farah,32.5,62.5,299.71,12,100,0.58,AF,1681443126
507,menongue,-14.6585,17.691,291.35,80,99,1.32,AO,1681442763
508,caravelas,-17.7125,-39.2481,296.53,92,11,2.26,BR,1681443127
509,hami,42.8,93.45,288.23,27,19,0.95,CN,1681443128
510,giubiasco,46.1725,9.0079,280.41,53,20,1.03,CH,1681443128
511,panama city,8.9936,-79.5197,301.02,74,0,2.06,PA,1681443122
512,abu kamal,34.4506,40.9171,286.48,66,3,4.23,SY,1681443130
513,svetlogorsk,52.6333,29.7333,280.44,92,100,2.92,BY,1681443131
514,beohari,24.05,81.3833,309.34,16,42,3.61,IN,1681443132
515,vestmannaeyjar,63.4427,-20.2734,279.05,78,83,3.28,IS,1681443133
516,sri aman,1.2376,111.4621,304.18,74,40,0.0,MY,1681443133
517,tautira,-17.7333,-149.15,299.97,66,41,4.48,PF,1681443134
518,inuvik,68.3499,-133.7218,255.57,78,75,3.09,CA,1681443015
519,goianesia,-15.3175,-49.1175,293.82,93,98,0.77,BR,1681442887
520,paamiut,61.994,-49.6678,274.04,67,100,5.12,GL,1681443136
521,stornoway,58.2093,-6.3865,275.39,94,76,0.51,GB,1681443136
522,frontera,26.9333,-101.45,300.0,42,95,4.02,MX,1681443137
523,khasan,42.4308,130.6434,284.01,39,93,1.07,RU,1681443138
524,ouadda,8.0777,22.4007,292.32,98,100,1.17,CF,1681443138
525,tsaratanana,-16.7833,47.65,295.46,91,100,2.13,MG,1681443139
526,itapema,-27.0903,-48.6114,295.75,90,75,3.44,BR,1681442940
527,luanda,-8.8368,13.2343,299.15,94,100,1.54,AO,1681443141
528,kuching,1.55,110.3333,306.0,65,40,0.89,MY,1681442971
529,ayan,56.45,138.1667,273.59,54,100,3.8,RU,1681443142
530,severka,56.8688,60.3015,261.84,48,20,5.88,RU,1681443143
531,predivinsk,57.0669,93.4378,276.87,86,100,4.08,RU,1681443143
532,hovd,48.0056,91.6419,279.15,13,0,2.06,MN,1681443144
533,requena,39.4883,-1.1004,281.37,59,66,2.83,ES,1681443144
534,neiafu,-18.65,-173.9833,301.53,78,75,5.66,TO,1681443145
535,ossora,59.2353,163.0719,272.35,88,100,5.23,RU,1681442793
536,harrisonburg,38.4496,-78.8689,292.36,53,0,0.0,US,1681443005
537,collie,-33.3667,116.15,288.84,36,19,5.03,AU,1681443147
538,kokoda,-8.8785,147.7407,304.77,60,90,0.56,PG,1681443147
539,leh,34.1667,77.5833,273.7,46,40,0.73,IN,1681443148
540,westport,41.1415,-73.3579,298.4,53,8,4.02,US,1681443028
541,horta,38.5333,-28.6333,289.83,93,90,8.05,PT,1681443149
542,bethel,41.3712,-73.414,297.48,35,10,0.89,US,1681442865
543,vostok,46.4856,135.8833,275.52,58,100,5.14,RU,1681443150
544,oranjestad,12.524,-70.027,299.21,82,20,8.23,AW,1681443116
545,gaurnadi,22.9667,90.2333,310.42,24,3,2.86,BD,1681443151
546,adzope,6.1069,-3.8619,296.24,95,99,0.54,CI,1681443152
547,sumenep,-7.0167,113.8667,302.3,72,100,3.06,ID,1681443153
548,bathsheba,13.2167,-59.5167,299.49,73,40,6.17,BB,1681443153
549,marsabit,2.3284,37.9899,291.06,87,100,5.12,KE,1681443154
550,inhambane,-23.865,35.3833,296.14,94,20,3.6,MZ,1681443154
